[
  {
    "uid": "4",
    "iso2": "AF",
    "iso3": "AFG",
    "code3": "4",
    "region": "Asia",
    "country_region": "Afghanistan",
    "lat": 33.93911,
    "lng": 67.709953,
    "population": 38928341,
    "name_ko": "Afghanistan",
    "name_en": "Afghanistan"
  },
  {
    "uid": "8",
    "iso2": "AL",
    "iso3": "ALB",
    "code3": "8",
    "region": "Europe",
    "country_region": "Albania",
    "lat": 41.1533,
    "lng": 20.1683,
    "population": 2877800,
    "name_ko": "Albania",
    "name_en": "Albania"
  },
  {
    "uid": "12",
    "iso2": "DZ",
    "iso3": "DZA",
    "code3": "12",
    "region": "Africa",
    "country_region": "Algeria",
    "lat": 28.0339,
    "lng": 1.6596,
    "population": 43851043,
    "name_ko": "Algeria",
    "name_en": "Algeria"
  },
  {
    "uid": "20",
    "iso2": "AD",
    "iso3": "AND",
    "code3": "20",
    "region": "Europe",
    "country_region": "Andorra",
    "lat": 42.5063,
    "lng": 1.5218,
    "population": 77265,
    "name_ko": "Andorra",
    "name_en": "Andorra"
  },
  {
    "uid": "24",
    "iso2": "AO",
    "iso3": "AGO",
    "code3": "24",
    "region": "Africa",
    "country_region": "Angola",
    "lat": -11.2027,
    "lng": 17.8739,
    "population": 32866268,
    "name_ko": "Angola",
    "name_en": "Angola"
  },
  {
    "uid": "28",
    "iso2": "AG",
    "iso3": "ATG",
    "code3": "28",
    "region": "Americas",
    "country_region": "Antigua and Barbuda",
    "lat": 17.0608,
    "lng": -61.7964,
    "population": 97928,
    "name_ko": "Antigua and Barbuda",
    "name_en": "Antigua and Barbuda"
  },
  {
    "uid": "32",
    "iso2": "AR",
    "iso3": "ARG",
    "code3": "32",
    "region": "Americas",
    "country_region": "Argentina",
    "lat": -38.4161,
    "lng": -63.6167,
    "population": 45195777,
    "name_ko": "Argentina",
    "name_en": "Argentina"
  },
  {
    "uid": "51",
    "iso2": "AM",
    "iso3": "ARM",
    "code3": "51",
    "region": "Asia",
    "country_region": "Armenia",
    "lat": 40.0691,
    "lng": 45.0382,
    "population": 2963234,
    "name_ko": "Armenia",
    "name_en": "Armenia"
  },
  {
    "uid": "40",
    "iso2": "AT",
    "iso3": "AUT",
    "code3": "40",
    "region": "Europe",
    "country_region": "Austria",
    "lat": 47.5162,
    "lng": 14.5501,
    "population": 9006400,
    "name_ko": "Austria",
    "name_en": "Austria"
  },
  {
    "uid": "31",
    "iso2": "AZ",
    "iso3": "AZE",
    "code3": "31",
    "region": "Asia",
    "country_region": "Azerbaijan",
    "lat": 40.1431,
    "lng": 47.5769,
    "population": 10139175,
    "name_ko": "Azerbaijan",
    "name_en": "Azerbaijan"
  },
  {
    "uid": "44",
    "iso2": "BS",
    "iso3": "BHS",
    "code3": "44",
    "region": "Americas",
    "country_region": "Bahamas",
    "lat": 25.025885,
    "lng": -78.035889,
    "population": 393248,
    "name_ko": "Bahamas",
    "name_en": "Bahamas"
  },
  {
    "uid": "48",
    "iso2": "BH",
    "iso3": "BHR",
    "code3": "48",
    "region": "Asia",
    "country_region": "Bahrain",
    "lat": 26.0275,
    "lng": 50.55,
    "population": 1701583,
    "name_ko": "Bahrain",
    "name_en": "Bahrain"
  },
  {
    "uid": "50",
    "iso2": "BD",
    "iso3": "BGD",
    "code3": "50",
    "region": "Asia",
    "country_region": "Bangladesh",
    "lat": 23.685,
    "lng": 90.3563,
    "population": 164689383,
    "name_ko": "Bangladesh",
    "name_en": "Bangladesh"
  },
  {
    "uid": "52",
    "iso2": "BB",
    "iso3": "BRB",
    "code3": "52",
    "region": "Americas",
    "country_region": "Barbados",
    "lat": 13.1939,
    "lng": -59.5432,
    "population": 287371,
    "name_ko": "Barbados",
    "name_en": "Barbados"
  },
  {
    "uid": "112",
    "iso2": "BY",
    "iso3": "BLR",
    "code3": "112",
    "region": "Europe",
    "country_region": "Belarus",
    "lat": 53.7098,
    "lng": 27.9534,
    "population": 9449321,
    "name_ko": "Belarus",
    "name_en": "Belarus"
  },
  {
    "uid": "56",
    "iso2": "BE",
    "iso3": "BEL",
    "code3": "56",
    "region": "Europe",
    "country_region": "Belgium",
    "lat": 50.8333,
    "lng": 4.469936,
    "population": 11589616,
    "name_ko": "Belgium",
    "name_en": "Belgium"
  },
  {
    "uid": "84",
    "iso2": "BZ",
    "iso3": "BLZ",
    "code3": "84",
    "region": "Americas",
    "country_region": "Belize",
    "lat": 17.1899,
    "lng": -88.4976,
    "population": 397621,
    "name_ko": "Belize",
    "name_en": "Belize"
  },
  {
    "uid": "204",
    "iso2": "BJ",
    "iso3": "BEN",
    "code3": "204",
    "region": "Africa",
    "country_region": "Benin",
    "lat": 9.3077,
    "lng": 2.3158,
    "population": 12123198,
    "name_ko": "Benin",
    "name_en": "Benin"
  },
  {
    "uid": "64",
    "iso2": "BT",
    "iso3": "BTN",
    "code3": "64",
    "region": "Asia",
    "country_region": "Bhutan",
    "lat": 27.5142,
    "lng": 90.4336,
    "population": 771612,
    "name_ko": "Bhutan",
    "name_en": "Bhutan"
  },
  {
    "uid": "68",
    "iso2": "BO",
    "iso3": "BOL",
    "code3": "68",
    "region": "Americas",
    "country_region": "Bolivia",
    "lat": -16.2902,
    "lng": -63.5887,
    "population": 11673029,
    "name_ko": "Bolivia",
    "name_en": "Bolivia"
  },
  {
    "uid": "70",
    "iso2": "BA",
    "iso3": "BIH",
    "code3": "70",
    "region": "Europe",
    "country_region": "Bosnia and Herzegovina",
    "lat": 43.9159,
    "lng": 17.6791,
    "population": 3280815,
    "name_ko": "Bosnia and Herzegovina",
    "name_en": "Bosnia and Herzegovina"
  },
  {
    "uid": "72",
    "iso2": "BW",
    "iso3": "BWA",
    "code3": "72",
    "region": "Africa",
    "country_region": "Botswana",
    "lat": -22.3285,
    "lng": 24.6849,
    "population": 2351625,
    "name_ko": "Botswana",
    "name_en": "Botswana"
  },
  {
    "uid": "76",
    "iso2": "BR",
    "iso3": "BRA",
    "code3": "76",
    "region": "Americas",
    "country_region": "Brazil",
    "lat": -14.235,
    "lng": -51.9253,
    "population": 212559409,
    "name_ko": "Brazil",
    "name_en": "Brazil"
  },
  {
    "uid": "96",
    "iso2": "BN",
    "iso3": "BRN",
    "code3": "96",
    "region": "Asia",
    "country_region": "Brunei",
    "lat": 4.5353,
    "lng": 114.7277,
    "population": 437483,
    "name_ko": "Brunei",
    "name_en": "Brunei"
  },
  {
    "uid": "100",
    "iso2": "BG",
    "iso3": "BGR",
    "code3": "100",
    "region": "Europe",
    "country_region": "Bulgaria",
    "lat": 42.7339,
    "lng": 25.4858,
    "population": 6948445,
    "name_ko": "Bulgaria",
    "name_en": "Bulgaria"
  },
  {
    "uid": "854",
    "iso2": "BF",
    "iso3": "BFA",
    "code3": "854",
    "region": "Africa",
    "country_region": "Burkina Faso",
    "lat": 12.2383,
    "lng": -1.5616,
    "population": 20903278,
    "name_ko": "Burkina Faso",
    "name_en": "Burkina Faso"
  },
  {
    "uid": "104",
    "iso2": "MM",
    "iso3": "MMR",
    "code3": "104",
    "region": "Asia",
    "country_region": "Burma",
    "lat": 21.9162,
    "lng": 95.956,
    "population": 54409794,
    "name_ko": "Burma",
    "name_en": "Burma"
  },
  {
    "uid": "108",
    "iso2": "BI",
    "iso3": "BDI",
    "code3": "108",
    "region": "Africa",
    "country_region": "Burundi",
    "lat": -3.3731,
    "lng": 29.9189,
    "population": 11890781,
    "name_ko": "Burundi",
    "name_en": "Burundi"
  },
  {
    "uid": "132",
    "iso2": "CV",
    "iso3": "CPV",
    "code3": "132",
    "region": "Africa",
    "country_region": "Cabo Verde",
    "lat": 16.5388,
    "lng": -23.0418,
    "population": 555988,
    "name_ko": "Cabo Verde",
    "name_en": "Cabo Verde"
  },
  {
    "uid": "116",
    "iso2": "KH",
    "iso3": "KHM",
    "code3": "116",
    "region": "Asia",
    "country_region": "Cambodia",
    "lat": 11.55,
    "lng": 104.9167,
    "population": 16718971,
    "name_ko": "Cambodia",
    "name_en": "Cambodia"
  },
  {
    "uid": "120",
    "iso2": "CM",
    "iso3": "CMR",
    "code3": "120",
    "region": "Africa",
    "country_region": "Cameroon",
    "lat": 3.848,
    "lng": 11.5021,
    "population": 26545864,
    "name_ko": "Cameroon",
    "name_en": "Cameroon"
  },
  {
    "uid": "140",
    "iso2": "CF",
    "iso3": "CAF",
    "code3": "140",
    "region": "Africa",
    "country_region": "Central African Republic",
    "lat": 6.6111,
    "lng": 20.9394,
    "population": 4829764,
    "name_ko": "Central African Republic",
    "name_en": "Central African Republic"
  },
  {
    "uid": "148",
    "iso2": "TD",
    "iso3": "TCD",
    "code3": "148",
    "region": "Africa",
    "country_region": "Chad",
    "lat": 15.4542,
    "lng": 18.7322,
    "population": 16425859,
    "name_ko": "Chad",
    "name_en": "Chad"
  },
  {
    "uid": "152",
    "iso2": "CL",
    "iso3": "CHL",
    "code3": "152",
    "region": "Americas",
    "country_region": "Chile",
    "lat": -35.6751,
    "lng": -71.543,
    "population": 19116209,
    "name_ko": "Chile",
    "name_en": "Chile"
  },
  {
    "uid": "170",
    "iso2": "CO",
    "iso3": "COL",
    "code3": "170",
    "region": "Americas",
    "country_region": "Colombia",
    "lat": 4.5709,
    "lng": -74.2973,
    "population": 50882884,
    "name_ko": "Colombia",
    "name_en": "Colombia"
  },
  {
    "uid": "178",
    "iso2": "CG",
    "iso3": "COG",
    "code3": "178",
    "region": "Africa",
    "country_region": "Congo (Brazzaville)",
    "lat": -4.2634,
    "lng": 15.2832,
    "population": 5518092,
    "name_ko": "Congo (Brazzaville)",
    "name_en": "Congo (Brazzaville)"
  },
  {
    "uid": "180",
    "iso2": "CD",
    "iso3": "COD",
    "code3": "180",
    "region": "Africa",
    "country_region": "Congo (Kinshasa)",
    "lat": -4.322447,
    "lng": 15.307045,
    "population": 89561404,
    "name_ko": "Congo (Kinshasa)",
    "name_en": "Congo (Kinshasa)"
  },
  {
    "uid": "188",
    "iso2": "CR",
    "iso3": "CRI",
    "code3": "188",
    "region": "Americas",
    "country_region": "Costa Rica",
    "lat": 9.7489,
    "lng": -83.7534,
    "population": 5094114,
    "name_ko": "Costa Rica",
    "name_en": "Costa Rica"
  },
  {
    "uid": "384",
    "iso2": "CI",
    "iso3": "CIV",
    "code3": "384",
    "region": "Africa",
    "country_region": "Cote d'Ivoire",
    "lat": 7.54,
    "lng": -5.5471,
    "population": 26378275,
    "name_ko": "Cote d'Ivoire",
    "name_en": "Cote d'Ivoire"
  },
  {
    "uid": "191",
    "iso2": "HR",
    "iso3": "HRV",
    "code3": "191",
    "region": "Europe",
    "country_region": "Croatia",
    "lat": 45.1,
    "lng": 15.2,
    "population": 4105268,
    "name_ko": "Croatia",
    "name_en": "Croatia"
  },
  {
    "uid": "192",
    "iso2": "CU",
    "iso3": "CUB",
    "code3": "192",
    "region": "Americas",
    "country_region": "Cuba",
    "lat": 21.521757,
    "lng": -77.781167,
    "population": 11326616,
    "name_ko": "Cuba",
    "name_en": "Cuba"
  },
  {
    "uid": "196",
    "iso2": "CY",
    "iso3": "CYP",
    "code3": "196",
    "region": "Asia",
    "country_region": "Cyprus",
    "lat": 35.1264,
    "lng": 33.4299,
    "population": 1207361,
    "name_ko": "Cyprus",
    "name_en": "Cyprus"
  },
  {
    "uid": "203",
    "iso2": "CZ",
    "iso3": "CZE",
    "code3": "203",
    "region": "Europe",
    "country_region": "Czechia",
    "lat": 49.8175,
    "lng": 15.473,
    "population": 10708982,
    "name_ko": "Czechia",
    "name_en": "Czechia"
  },
  {
    "uid": "208",
    "iso2": "DK",
    "iso3": "DNK",
    "code3": "208",
    "region": "Europe",
    "country_region": "Denmark",
    "lat": 56.2639,
    "lng": 9.5018,
    "population": 5792203,
    "name_ko": "Denmark",
    "name_en": "Denmark"
  },
  {
    "uid": "9999",
    "iso2": "",
    "iso3": "",
    "code3": "",
    "country_region": "Diamond Princess",
    "lat": 0,
    "lng": 0,
    "population": 0,
    "name_ko": "Diamond Princess",
    "name_en": "Diamond Princess"
  },
  {
    "uid": "262",
    "iso2": "DJ",
    "iso3": "DJI",
    "code3": "262",
    "region": "Africa",
    "country_region": "Djibouti",
    "lat": 11.8251,
    "lng": 42.5903,
    "population": 988002,
    "name_ko": "Djibouti",
    "name_en": "Djibouti"
  },
  {
    "uid": "212",
    "iso2": "DM",
    "iso3": "DMA",
    "code3": "212",
    "region": "Americas",
    "country_region": "Dominica",
    "lat": 15.415,
    "lng": -61.371,
    "population": 71991,
    "name_ko": "Dominica",
    "name_en": "Dominica"
  },
  {
    "uid": "214",
    "iso2": "DO",
    "iso3": "DOM",
    "code3": "214",
    "region": "Americas",
    "country_region": "Dominican Republic",
    "lat": 18.7357,
    "lng": -70.1627,
    "population": 10847904,
    "name_ko": "Dominican Republic",
    "name_en": "Dominican Republic"
  },
  {
    "uid": "218",
    "iso2": "EC",
    "iso3": "ECU",
    "code3": "218",
    "region": "Americas",
    "country_region": "Ecuador",
    "lat": -1.8312,
    "lng": -78.1834,
    "population": 17643060,
    "name_ko": "Ecuador",
    "name_en": "Ecuador"
  },
  {
    "uid": "818",
    "iso2": "EG",
    "iso3": "EGY",
    "code3": "818",
    "region": "Africa",
    "country_region": "Egypt",
    "lat": 26.820553,
    "lng": 30.802498,
    "population": 102334403,
    "name_ko": "Egypt",
    "name_en": "Egypt"
  },
  {
    "uid": "222",
    "iso2": "SV",
    "iso3": "SLV",
    "code3": "222",
    "region": "Americas",
    "country_region": "El Salvador",
    "lat": 13.7942,
    "lng": -88.8965,
    "population": 6486201,
    "name_ko": "El Salvador",
    "name_en": "El Salvador"
  },
  {
    "uid": "226",
    "iso2": "GQ",
    "iso3": "GNQ",
    "code3": "226",
    "region": "Africa",
    "country_region": "Equatorial Guinea",
    "lat": 1.6508,
    "lng": 10.2679,
    "population": 1402985,
    "name_ko": "Equatorial Guinea",
    "name_en": "Equatorial Guinea"
  },
  {
    "uid": "232",
    "iso2": "ER",
    "iso3": "ERI",
    "code3": "232",
    "region": "Africa",
    "country_region": "Eritrea",
    "lat": 15.1794,
    "lng": 39.7823,
    "population": 3546427,
    "name_ko": "Eritrea",
    "name_en": "Eritrea"
  },
  {
    "uid": "233",
    "iso2": "EE",
    "iso3": "EST",
    "code3": "233",
    "region": "Europe",
    "country_region": "Estonia",
    "lat": 58.5953,
    "lng": 25.0136,
    "population": 1326539,
    "name_ko": "Estonia",
    "name_en": "Estonia"
  },
  {
    "uid": "748",
    "iso2": "SZ",
    "iso3": "SWZ",
    "code3": "748",
    "region": "Africa",
    "country_region": "Eswatini",
    "lat": -26.5225,
    "lng": 31.4659,
    "population": 1160164,
    "name_ko": "Eswatini",
    "name_en": "Eswatini"
  },
  {
    "uid": "231",
    "iso2": "ET",
    "iso3": "ETH",
    "code3": "231",
    "region": "Africa",
    "country_region": "Ethiopia",
    "lat": 9.145,
    "lng": 40.4897,
    "population": 114963583,
    "name_ko": "Ethiopia",
    "name_en": "Ethiopia"
  },
  {
    "uid": "242",
    "iso2": "FJ",
    "iso3": "FJI",
    "code3": "242",
    "region": "Oceania",
    "country_region": "Fiji",
    "lat": -17.7134,
    "lng": 178.065,
    "population": 896444,
    "name_ko": "Fiji",
    "name_en": "Fiji"
  },
  {
    "uid": "246",
    "iso2": "FI",
    "iso3": "FIN",
    "code3": "246",
    "region": "Europe",
    "country_region": "Finland",
    "lat": 61.92411,
    "lng": 25.748151,
    "population": 5540718,
    "name_ko": "Finland",
    "name_en": "Finland"
  },
  {
    "uid": "250",
    "iso2": "FR",
    "iso3": "FRA",
    "code3": "250",
    "region": "Europe",
    "country_region": "France",
    "lat": 46.2276,
    "lng": 2.2137,
    "population": 65273512,
    "name_ko": "France",
    "name_en": "France"
  },
  {
    "uid": "266",
    "iso2": "GA",
    "iso3": "GAB",
    "code3": "266",
    "region": "Africa",
    "country_region": "Gabon",
    "lat": -0.8037,
    "lng": 11.6094,
    "population": 2225728,
    "name_ko": "Gabon",
    "name_en": "Gabon"
  },
  {
    "uid": "270",
    "iso2": "GM",
    "iso3": "GMB",
    "code3": "270",
    "region": "Africa",
    "country_region": "Gambia",
    "lat": 13.4432,
    "lng": -15.3101,
    "population": 2416664,
    "name_ko": "Gambia",
    "name_en": "Gambia"
  },
  {
    "uid": "268",
    "iso2": "GE",
    "iso3": "GEO",
    "code3": "268",
    "region": "Asia",
    "country_region": "Georgia",
    "lat": 42.3154,
    "lng": 43.3569,
    "population": 3989175,
    "name_ko": "Georgia",
    "name_en": "Georgia"
  },
  {
    "uid": "276",
    "iso2": "DE",
    "iso3": "DEU",
    "code3": "276",
    "region": "Europe",
    "country_region": "Germany",
    "lat": 51.165691,
    "lng": 10.451526,
    "population": 83783945,
    "name_ko": "Germany",
    "name_en": "Germany"
  },
  {
    "uid": "288",
    "iso2": "GH",
    "iso3": "GHA",
    "code3": "288",
    "region": "Africa",
    "country_region": "Ghana",
    "lat": 7.9465,
    "lng": -1.0232,
    "population": 31072945,
    "name_ko": "Ghana",
    "name_en": "Ghana"
  },
  {
    "uid": "300",
    "iso2": "GR",
    "iso3": "GRC",
    "code3": "300",
    "region": "Europe",
    "country_region": "Greece",
    "lat": 39.0742,
    "lng": 21.8243,
    "population": 10423056,
    "name_ko": "Greece",
    "name_en": "Greece"
  },
  {
    "uid": "308",
    "iso2": "GD",
    "iso3": "GRD",
    "code3": "308",
    "region": "Americas",
    "country_region": "Grenada",
    "lat": 12.1165,
    "lng": -61.679,
    "population": 112519,
    "name_ko": "Grenada",
    "name_en": "Grenada"
  },
  {
    "uid": "320",
    "iso2": "GT",
    "iso3": "GTM",
    "code3": "320",
    "region": "Americas",
    "country_region": "Guatemala",
    "lat": 15.7835,
    "lng": -90.2308,
    "population": 17915567,
    "name_ko": "Guatemala",
    "name_en": "Guatemala"
  },
  {
    "uid": "324",
    "iso2": "GN",
    "iso3": "GIN",
    "code3": "324",
    "region": "Africa",
    "country_region": "Guinea",
    "lat": 9.9456,
    "lng": -9.6966,
    "population": 13132792,
    "name_ko": "Guinea",
    "name_en": "Guinea"
  },
  {
    "uid": "624",
    "iso2": "GW",
    "iso3": "GNB",
    "code3": "624",
    "region": "Africa",
    "country_region": "Guinea-Bissau",
    "lat": 11.8037,
    "lng": -15.1804,
    "population": 1967998,
    "name_ko": "Guinea-Bissau",
    "name_en": "Guinea-Bissau"
  },
  {
    "uid": "328",
    "iso2": "GY",
    "iso3": "GUY",
    "code3": "328",
    "region": "Americas",
    "country_region": "Guyana",
    "lat": 4.860416,
    "lng": -58.93018,
    "population": 786559,
    "name_ko": "Guyana",
    "name_en": "Guyana"
  },
  {
    "uid": "332",
    "iso2": "HT",
    "iso3": "HTI",
    "code3": "332",
    "region": "Americas",
    "country_region": "Haiti",
    "lat": 18.9712,
    "lng": -72.2852,
    "population": 11402533,
    "name_ko": "Haiti",
    "name_en": "Haiti"
  },
  {
    "uid": "336",
    "iso2": "VA",
    "iso3": "VAT",
    "code3": "336",
    "region": "Europe",
    "country_region": "Holy See",
    "lat": 41.9029,
    "lng": 12.4534,
    "population": 809,
    "name_ko": "Holy See",
    "name_en": "Holy See"
  },
  {
    "uid": "340",
    "iso2": "HN",
    "iso3": "HND",
    "code3": "340",
    "region": "Americas",
    "country_region": "Honduras",
    "lat": 15.2,
    "lng": -86.2419,
    "population": 9904608,
    "name_ko": "Honduras",
    "name_en": "Honduras"
  },
  {
    "uid": "348",
    "iso2": "HU",
    "iso3": "HUN",
    "code3": "348",
    "region": "Europe",
    "country_region": "Hungary",
    "lat": 47.1625,
    "lng": 19.5033,
    "population": 9660350,
    "name_ko": "Hungary",
    "name_en": "Hungary"
  },
  {
    "uid": "352",
    "iso2": "IS",
    "iso3": "ISL",
    "code3": "352",
    "region": "Europe",
    "country_region": "Iceland",
    "lat": 64.9631,
    "lng": -19.0208,
    "population": 341250,
    "name_ko": "Iceland",
    "name_en": "Iceland"
  },
  {
    "uid": "356",
    "iso2": "IN",
    "iso3": "IND",
    "code3": "356",
    "region": "Asia",
    "country_region": "India",
    "lat": 20.593684,
    "lng": 78.96288,
    "population": 1380004385,
    "name_ko": "India",
    "name_en": "India"
  },
  {
    "uid": "360",
    "iso2": "ID",
    "iso3": "IDN",
    "code3": "360",
    "region": "Asia",
    "country_region": "Indonesia",
    "lat": -0.7893,
    "lng": 113.9213,
    "population": 273523621,
    "name_ko": "Indonesia",
    "name_en": "Indonesia"
  },
  {
    "uid": "364",
    "iso2": "IR",
    "iso3": "IRN",
    "code3": "364",
    "region": "Asia",
    "country_region": "Iran",
    "lat": 32.427908,
    "lng": 53.688046,
    "population": 83992953,
    "name_ko": "Iran",
    "name_en": "Iran"
  },
  {
    "uid": "368",
    "iso2": "IQ",
    "iso3": "IRQ",
    "code3": "368",
    "region": "Asia",
    "country_region": "Iraq",
    "lat": 33.223191,
    "lng": 43.679291,
    "population": 40222503,
    "name_ko": "Iraq",
    "name_en": "Iraq"
  },
  {
    "uid": "372",
    "iso2": "IE",
    "iso3": "IRL",
    "code3": "372",
    "region": "Europe",
    "country_region": "Ireland",
    "lat": 53.1424,
    "lng": -7.6921,
    "population": 4937796,
    "name_ko": "Ireland",
    "name_en": "Ireland"
  },
  {
    "uid": "376",
    "iso2": "IL",
    "iso3": "ISR",
    "code3": "376",
    "region": "Asia",
    "country_region": "Israel",
    "lat": 31.046051,
    "lng": 34.851612,
    "population": 8655541,
    "name_ko": "Israel",
    "name_en": "Israel"
  },
  {
    "uid": "380",
    "iso2": "IT",
    "iso3": "ITA",
    "code3": "380",
    "region": "Europe",
    "country_region": "Italy",
    "lat": 41.87194,
    "lng": 12.56738,
    "population": 60461828,
    "name_ko": "Italy",
    "name_en": "Italy"
  },
  {
    "uid": "388",
    "iso2": "JM",
    "iso3": "JAM",
    "code3": "388",
    "region": "Americas",
    "country_region": "Jamaica",
    "lat": 18.1096,
    "lng": -77.2975,
    "population": 2961161,
    "name_ko": "Jamaica",
    "name_en": "Jamaica"
  },
  {
    "uid": "392",
    "iso2": "JP",
    "iso3": "JPN",
    "code3": "392",
    "region": "Asia",
    "country_region": "Japan",
    "lat": 36.204824,
    "lng": 138.252924,
    "population": 126476458,
    "name_ko": "Japan",
    "name_en": "Japan"
  },
  {
    "uid": "400",
    "iso2": "JO",
    "iso3": "JOR",
    "code3": "400",
    "region": "Asia",
    "country_region": "Jordan",
    "lat": 31.24,
    "lng": 36.51,
    "population": 10203140,
    "name_ko": "Jordan",
    "name_en": "Jordan"
  },
  {
    "uid": "398",
    "iso2": "KZ",
    "iso3": "KAZ",
    "code3": "398",
    "region": "Asia",
    "country_region": "Kazakhstan",
    "lat": 48.0196,
    "lng": 66.9237,
    "population": 18776707,
    "name_ko": "Kazakhstan",
    "name_en": "Kazakhstan"
  },
  {
    "uid": "404",
    "iso2": "KE",
    "iso3": "KEN",
    "code3": "404",
    "region": "Africa",
    "country_region": "Kenya",
    "lat": -0.0236,
    "lng": 37.9062,
    "population": 53771300,
    "name_ko": "Kenya",
    "name_en": "Kenya"
  },
  {
    "uid": "410",
    "iso2": "KR",
    "iso3": "KOR",
    "code3": "410",
    "region": "Asia",
    "country_region": "Korea, South",
    "lat": 35.907757,
    "lng": 127.766922,
    "population": 51269183,
    "name_ko": "Korea, South",
    "name_en": "Korea, South"
  },
  {
    "uid": "383",
    "iso2": "XK",
    "iso3": "XKS",
    "code3": "383",
    "country_region": "Kosovo",
    "lat": 42.602636,
    "lng": 20.902977,
    "population": 1810366,
    "name_ko": "Kosovo",
    "name_en": "Kosovo"
  },
  {
    "uid": "414",
    "iso2": "KW",
    "iso3": "KWT",
    "code3": "414",
    "region": "Asia",
    "country_region": "Kuwait",
    "lat": 29.31166,
    "lng": 47.481766,
    "population": 4270563,
    "name_ko": "Kuwait",
    "name_en": "Kuwait"
  },
  {
    "uid": "417",
    "iso2": "KG",
    "iso3": "KGZ",
    "code3": "417",
    "region": "Asia",
    "country_region": "Kyrgyzstan",
    "lat": 41.20438,
    "lng": 74.766098,
    "population": 6524191,
    "name_ko": "Kyrgyzstan",
    "name_en": "Kyrgyzstan"
  },
  {
    "uid": "418",
    "iso2": "LA",
    "iso3": "LAO",
    "code3": "418",
    "region": "Asia",
    "country_region": "Laos",
    "lat": 19.85627,
    "lng": 102.495496,
    "population": 7275556,
    "name_ko": "Laos",
    "name_en": "Laos"
  },
  {
    "uid": "428",
    "iso2": "LV",
    "iso3": "LVA",
    "code3": "428",
    "region": "Europe",
    "country_region": "Latvia",
    "lat": 56.8796,
    "lng": 24.6032,
    "population": 1886202,
    "name_ko": "Latvia",
    "name_en": "Latvia"
  },
  {
    "uid": "422",
    "iso2": "LB",
    "iso3": "LBN",
    "code3": "422",
    "region": "Asia",
    "country_region": "Lebanon",
    "lat": 33.8547,
    "lng": 35.8623,
    "population": 6825442,
    "name_ko": "Lebanon",
    "name_en": "Lebanon"
  },
  {
    "uid": "430",
    "iso2": "LR",
    "iso3": "LBR",
    "code3": "430",
    "region": "Africa",
    "country_region": "Liberia",
    "lat": 6.428055,
    "lng": -9.429499,
    "population": 5057677,
    "name_ko": "Liberia",
    "name_en": "Liberia"
  },
  {
    "uid": "434",
    "iso2": "LY",
    "iso3": "LBY",
    "code3": "434",
    "region": "Africa",
    "country_region": "Libya",
    "lat": 26.3351,
    "lng": 17.228331,
    "population": 6871287,
    "name_ko": "Libya",
    "name_en": "Libya"
  },
  {
    "uid": "438",
    "iso2": "LI",
    "iso3": "LIE",
    "code3": "438",
    "region": "Europe",
    "country_region": "Liechtenstein",
    "lat": 47.14,
    "lng": 9.55,
    "population": 38137,
    "name_ko": "Liechtenstein",
    "name_en": "Liechtenstein"
  },
  {
    "uid": "440",
    "iso2": "LT",
    "iso3": "LTU",
    "code3": "440",
    "region": "Europe",
    "country_region": "Lithuania",
    "lat": 55.1694,
    "lng": 23.8813,
    "population": 2722291,
    "name_ko": "Lithuania",
    "name_en": "Lithuania"
  },
  {
    "uid": "442",
    "iso2": "LU",
    "iso3": "LUX",
    "code3": "442",
    "region": "Europe",
    "country_region": "Luxembourg",
    "lat": 49.8153,
    "lng": 6.1296,
    "population": 625976,
    "name_ko": "Luxembourg",
    "name_en": "Luxembourg"
  },
  {
    "uid": "450",
    "iso2": "MG",
    "iso3": "MDG",
    "code3": "450",
    "region": "Africa",
    "country_region": "Madagascar",
    "lat": -18.766947,
    "lng": 46.869107,
    "population": 27691019,
    "name_ko": "Madagascar",
    "name_en": "Madagascar"
  },
  {
    "uid": "454",
    "iso2": "MW",
    "iso3": "MWI",
    "code3": "454",
    "region": "Africa",
    "country_region": "Malawi",
    "lat": -13.2543,
    "lng": 34.3015,
    "population": 19129955,
    "name_ko": "Malawi",
    "name_en": "Malawi"
  },
  {
    "uid": "458",
    "iso2": "MY",
    "iso3": "MYS",
    "code3": "458",
    "region": "Asia",
    "country_region": "Malaysia",
    "lat": 4.210484,
    "lng": 101.975766,
    "population": 32365998,
    "name_ko": "Malaysia",
    "name_en": "Malaysia"
  },
  {
    "uid": "462",
    "iso2": "MV",
    "iso3": "MDV",
    "code3": "462",
    "region": "Asia",
    "country_region": "Maldives",
    "lat": 3.2028,
    "lng": 73.2207,
    "population": 540542,
    "name_ko": "Maldives",
    "name_en": "Maldives"
  },
  {
    "uid": "466",
    "iso2": "ML",
    "iso3": "MLI",
    "code3": "466",
    "region": "Africa",
    "country_region": "Mali",
    "lat": 17.570692,
    "lng": -3.996166,
    "population": 20250834,
    "name_ko": "Mali",
    "name_en": "Mali"
  },
  {
    "uid": "470",
    "iso2": "MT",
    "iso3": "MLT",
    "code3": "470",
    "region": "Europe",
    "country_region": "Malta",
    "lat": 35.9375,
    "lng": 14.3754,
    "population": 441539,
    "name_ko": "Malta",
    "name_en": "Malta"
  },
  {
    "uid": "478",
    "iso2": "MR",
    "iso3": "MRT",
    "code3": "478",
    "region": "Africa",
    "country_region": "Mauritania",
    "lat": 21.0079,
    "lng": -10.9408,
    "population": 4649660,
    "name_ko": "Mauritania",
    "name_en": "Mauritania"
  },
  {
    "uid": "480",
    "iso2": "MU",
    "iso3": "MUS",
    "code3": "480",
    "region": "Africa",
    "country_region": "Mauritius",
    "lat": -20.348404,
    "lng": 57.552152,
    "population": 1271767,
    "name_ko": "Mauritius",
    "name_en": "Mauritius"
  },
  {
    "uid": "484",
    "iso2": "MX",
    "iso3": "MEX",
    "code3": "484",
    "region": "Americas",
    "country_region": "Mexico",
    "lat": 23.6345,
    "lng": -102.5528,
    "population": 128932753,
    "name_ko": "Mexico",
    "name_en": "Mexico"
  },
  {
    "uid": "498",
    "iso2": "MD",
    "iso3": "MDA",
    "code3": "498",
    "region": "Europe",
    "country_region": "Moldova",
    "lat": 47.4116,
    "lng": 28.3699,
    "population": 4033963,
    "name_ko": "Moldova",
    "name_en": "Moldova"
  },
  {
    "uid": "492",
    "iso2": "MC",
    "iso3": "MCO",
    "code3": "492",
    "region": "Europe",
    "country_region": "Monaco",
    "lat": 43.7333,
    "lng": 7.4167,
    "population": 39244,
    "name_ko": "Monaco",
    "name_en": "Monaco"
  },
  {
    "uid": "496",
    "iso2": "MN",
    "iso3": "MNG",
    "code3": "496",
    "region": "Asia",
    "country_region": "Mongolia",
    "lat": 46.8625,
    "lng": 103.8467,
    "population": 3278292,
    "name_ko": "Mongolia",
    "name_en": "Mongolia"
  },
  {
    "uid": "499",
    "iso2": "ME",
    "iso3": "MNE",
    "code3": "499",
    "region": "Europe",
    "country_region": "Montenegro",
    "lat": 42.708678,
    "lng": 19.37439,
    "population": 628062,
    "name_ko": "Montenegro",
    "name_en": "Montenegro"
  },
  {
    "uid": "504",
    "iso2": "MA",
    "iso3": "MAR",
    "code3": "504",
    "region": "Africa",
    "country_region": "Morocco",
    "lat": 31.7917,
    "lng": -7.0926,
    "population": 36910558,
    "name_ko": "Morocco",
    "name_en": "Morocco"
  },
  {
    "uid": "508",
    "iso2": "MZ",
    "iso3": "MOZ",
    "code3": "508",
    "region": "Africa",
    "country_region": "Mozambique",
    "lat": -18.665695,
    "lng": 35.529562,
    "population": 31255435,
    "name_ko": "Mozambique",
    "name_en": "Mozambique"
  },
  {
    "uid": "8888",
    "iso2": "",
    "iso3": "",
    "code3": "",
    "country_region": "MS Zaandam",
    "lat": 0,
    "lng": 0,
    "population": 0,
    "name_ko": "MS Zaandam",
    "name_en": "MS Zaandam"
  },
  {
    "uid": "516",
    "iso2": "NA",
    "iso3": "NAM",
    "code3": "516",
    "region": "Africa",
    "country_region": "Namibia",
    "lat": -22.9576,
    "lng": 18.4904,
    "population": 2540916,
    "name_ko": "Namibia",
    "name_en": "Namibia"
  },
  {
    "uid": "524",
    "iso2": "NP",
    "iso3": "NPL",
    "code3": "524",
    "region": "Asia",
    "country_region": "Nepal",
    "lat": 28.1667,
    "lng": 84.25,
    "population": 29136808,
    "name_ko": "Nepal",
    "name_en": "Nepal"
  },
  {
    "uid": "528",
    "iso2": "NL",
    "iso3": "NLD",
    "code3": "528",
    "region": "Europe",
    "country_region": "Netherlands",
    "lat": 52.1326,
    "lng": 5.2913,
    "population": 17134873,
    "name_ko": "Netherlands",
    "name_en": "Netherlands"
  },
  {
    "uid": "554",
    "iso2": "NZ",
    "iso3": "NZL",
    "code3": "554",
    "region": "Oceania",
    "country_region": "New Zealand",
    "lat": -40.9006,
    "lng": 174.886,
    "population": 4822233,
    "name_ko": "New Zealand",
    "name_en": "New Zealand"
  },
  {
    "uid": "558",
    "iso2": "NI",
    "iso3": "NIC",
    "code3": "558",
    "region": "Americas",
    "country_region": "Nicaragua",
    "lat": 12.865416,
    "lng": -85.207229,
    "population": 6624554,
    "name_ko": "Nicaragua",
    "name_en": "Nicaragua"
  },
  {
    "uid": "562",
    "iso2": "NE",
    "iso3": "NER",
    "code3": "562",
    "region": "Africa",
    "country_region": "Niger",
    "lat": 17.607789,
    "lng": 8.081666,
    "population": 24206636,
    "name_ko": "Niger",
    "name_en": "Niger"
  },
  {
    "uid": "566",
    "iso2": "NG",
    "iso3": "NGA",
    "code3": "566",
    "region": "Africa",
    "country_region": "Nigeria",
    "lat": 9.082,
    "lng": 8.6753,
    "population": 206139587,
    "name_ko": "Nigeria",
    "name_en": "Nigeria"
  },
  {
    "uid": "807",
    "iso2": "MK",
    "iso3": "MKD",
    "code3": "807",
    "region": "Europe",
    "country_region": "North Macedonia",
    "lat": 41.6086,
    "lng": 21.7453,
    "population": 2083380,
    "name_ko": "North Macedonia",
    "name_en": "North Macedonia"
  },
  {
    "uid": "578",
    "iso2": "NO",
    "iso3": "NOR",
    "code3": "578",
    "region": "Europe",
    "country_region": "Norway",
    "lat": 60.472,
    "lng": 8.4689,
    "population": 5421242,
    "name_ko": "Norway",
    "name_en": "Norway"
  },
  {
    "uid": "512",
    "iso2": "OM",
    "iso3": "OMN",
    "code3": "512",
    "region": "Asia",
    "country_region": "Oman",
    "lat": 21.512583,
    "lng": 55.923255,
    "population": 5106622,
    "name_ko": "Oman",
    "name_en": "Oman"
  },
  {
    "uid": "586",
    "iso2": "PK",
    "iso3": "PAK",
    "code3": "586",
    "region": "Asia",
    "country_region": "Pakistan",
    "lat": 30.3753,
    "lng": 69.3451,
    "population": 220892331,
    "name_ko": "Pakistan",
    "name_en": "Pakistan"
  },
  {
    "uid": "591",
    "iso2": "PA",
    "iso3": "PAN",
    "code3": "591",
    "region": "Americas",
    "country_region": "Panama",
    "lat": 8.538,
    "lng": -80.7821,
    "population": 4314768,
    "name_ko": "Panama",
    "name_en": "Panama"
  },
  {
    "uid": "598",
    "iso2": "PG",
    "iso3": "PNG",
    "code3": "598",
    "region": "Oceania",
    "country_region": "Papua New Guinea",
    "lat": -6.314993,
    "lng": 143.95555,
    "population": 8947027,
    "name_ko": "Papua New Guinea",
    "name_en": "Papua New Guinea"
  },
  {
    "uid": "600",
    "iso2": "PY",
    "iso3": "PRY",
    "code3": "600",
    "region": "Americas",
    "country_region": "Paraguay",
    "lat": -23.4425,
    "lng": -58.4438,
    "population": 7132530,
    "name_ko": "Paraguay",
    "name_en": "Paraguay"
  },
  {
    "uid": "604",
    "iso2": "PE",
    "iso3": "PER",
    "code3": "604",
    "region": "Americas",
    "country_region": "Peru",
    "lat": -9.19,
    "lng": -75.0152,
    "population": 32971846,
    "name_ko": "Peru",
    "name_en": "Peru"
  },
  {
    "uid": "608",
    "iso2": "PH",
    "iso3": "PHL",
    "code3": "608",
    "region": "Asia",
    "country_region": "Philippines",
    "lat": 12.879721,
    "lng": 121.774017,
    "population": 109581085,
    "name_ko": "Philippines",
    "name_en": "Philippines"
  },
  {
    "uid": "616",
    "iso2": "PL",
    "iso3": "POL",
    "code3": "616",
    "region": "Europe",
    "country_region": "Poland",
    "lat": 51.9194,
    "lng": 19.1451,
    "population": 37846605,
    "name_ko": "Poland",
    "name_en": "Poland"
  },
  {
    "uid": "620",
    "iso2": "PT",
    "iso3": "PRT",
    "code3": "620",
    "region": "Europe",
    "country_region": "Portugal",
    "lat": 39.3999,
    "lng": -8.2245,
    "population": 10196707,
    "name_ko": "Portugal",
    "name_en": "Portugal"
  },
  {
    "uid": "634",
    "iso2": "QA",
    "iso3": "QAT",
    "code3": "634",
    "region": "Asia",
    "country_region": "Qatar",
    "lat": 25.3548,
    "lng": 51.1839,
    "population": 2881060,
    "name_ko": "Qatar",
    "name_en": "Qatar"
  },
  {
    "uid": "642",
    "iso2": "RO",
    "iso3": "ROU",
    "code3": "642",
    "region": "Europe",
    "country_region": "Romania",
    "lat": 45.9432,
    "lng": 24.9668,
    "population": 19237682,
    "name_ko": "Romania",
    "name_en": "Romania"
  },
  {
    "uid": "643",
    "iso2": "RU",
    "iso3": "RUS",
    "code3": "643",
    "region": "Europe",
    "country_region": "Russia",
    "lat": 61.52401,
    "lng": 105.318756,
    "population": 145934460,
    "name_ko": "Russia",
    "name_en": "Russia"
  },
  {
    "uid": "646",
    "iso2": "RW",
    "iso3": "RWA",
    "code3": "646",
    "region": "Africa",
    "country_region": "Rwanda",
    "lat": -1.9403,
    "lng": 29.8739,
    "population": 12952209,
    "name_ko": "Rwanda",
    "name_en": "Rwanda"
  },
  {
    "uid": "659",
    "iso2": "KN",
    "iso3": "KNA",
    "code3": "659",
    "region": "Americas",
    "country_region": "Saint Kitts and Nevis",
    "lat": 17.357822,
    "lng": -62.782998,
    "population": 53192,
    "name_ko": "Saint Kitts and Nevis",
    "name_en": "Saint Kitts and Nevis"
  },
  {
    "uid": "662",
    "iso2": "LC",
    "iso3": "LCA",
    "code3": "662",
    "region": "Americas",
    "country_region": "Saint Lucia",
    "lat": 13.9094,
    "lng": -60.9789,
    "population": 183629,
    "name_ko": "Saint Lucia",
    "name_en": "Saint Lucia"
  },
  {
    "uid": "670",
    "iso2": "VC",
    "iso3": "VCT",
    "code3": "670",
    "region": "Americas",
    "country_region": "Saint Vincent and the Grenadines",
    "lat": 12.9843,
    "lng": -61.2872,
    "population": 110947,
    "name_ko": "Saint Vincent and the Grenadines",
    "name_en": "Saint Vincent and the Grenadines"
  },
  {
    "uid": "674",
    "iso2": "SM",
    "iso3": "SMR",
    "code3": "674",
    "region": "Europe",
    "country_region": "San Marino",
    "lat": 43.9424,
    "lng": 12.4578,
    "population": 33938,
    "name_ko": "San Marino",
    "name_en": "San Marino"
  },
  {
    "uid": "678",
    "iso2": "ST",
    "iso3": "STP",
    "code3": "678",
    "region": "Africa",
    "country_region": "Sao Tome and Principe",
    "lat": 0.1864,
    "lng": 6.6131,
    "population": 219161,
    "name_ko": "Sao Tome and Principe",
    "name_en": "Sao Tome and Principe"
  },
  {
    "uid": "682",
    "iso2": "SA",
    "iso3": "SAU",
    "code3": "682",
    "region": "Asia",
    "country_region": "Saudi Arabia",
    "lat": 23.885942,
    "lng": 45.079162,
    "population": 34813867,
    "name_ko": "Saudi Arabia",
    "name_en": "Saudi Arabia"
  },
  {
    "uid": "686",
    "iso2": "SN",
    "iso3": "SEN",
    "code3": "686",
    "region": "Africa",
    "country_region": "Senegal",
    "lat": 14.4974,
    "lng": -14.4524,
    "population": 16743930,
    "name_ko": "Senegal",
    "name_en": "Senegal"
  },
  {
    "uid": "688",
    "iso2": "RS",
    "iso3": "SRB",
    "code3": "688",
    "region": "Europe",
    "country_region": "Serbia",
    "lat": 44.0165,
    "lng": 21.0059,
    "population": 8737370,
    "name_ko": "Serbia",
    "name_en": "Serbia"
  },
  {
    "uid": "690",
    "iso2": "SC",
    "iso3": "SYC",
    "code3": "690",
    "region": "Africa",
    "country_region": "Seychelles",
    "lat": -4.6796,
    "lng": 55.492,
    "population": 98340,
    "name_ko": "Seychelles",
    "name_en": "Seychelles"
  },
  {
    "uid": "694",
    "iso2": "SL",
    "iso3": "SLE",
    "code3": "694",
    "region": "Africa",
    "country_region": "Sierra Leone",
    "lat": 8.460555,
    "lng": -11.779889,
    "population": 7976985,
    "name_ko": "Sierra Leone",
    "name_en": "Sierra Leone"
  },
  {
    "uid": "702",
    "iso2": "SG",
    "iso3": "SGP",
    "code3": "702",
    "region": "Asia",
    "country_region": "Singapore",
    "lat": 1.2833,
    "lng": 103.8333,
    "population": 5850343,
    "name_ko": "Singapore",
    "name_en": "Singapore"
  },
  {
    "uid": "703",
    "iso2": "SK",
    "iso3": "SVK",
    "code3": "703",
    "region": "Europe",
    "country_region": "Slovakia",
    "lat": 48.669,
    "lng": 19.699,
    "population": 5459643,
    "name_ko": "Slovakia",
    "name_en": "Slovakia"
  },
  {
    "uid": "705",
    "iso2": "SI",
    "iso3": "SVN",
    "code3": "705",
    "region": "Europe",
    "country_region": "Slovenia",
    "lat": 46.1512,
    "lng": 14.9955,
    "population": 2078932,
    "name_ko": "Slovenia",
    "name_en": "Slovenia"
  },
  {
    "uid": "706",
    "iso2": "SO",
    "iso3": "SOM",
    "code3": "706",
    "region": "Africa",
    "country_region": "Somalia",
    "lat": 5.152149,
    "lng": 46.199616,
    "population": 15893219,
    "name_ko": "Somalia",
    "name_en": "Somalia"
  },
  {
    "uid": "710",
    "iso2": "ZA",
    "iso3": "ZAF",
    "code3": "710",
    "region": "Africa",
    "country_region": "South Africa",
    "lat": -30.5595,
    "lng": 22.9375,
    "population": 59308690,
    "name_ko": "South Africa",
    "name_en": "South Africa"
  },
  {
    "uid": "728",
    "iso2": "SS",
    "iso3": "SSD",
    "code3": "728",
    "region": "Africa",
    "country_region": "South Sudan",
    "lat": 6.877,
    "lng": 31.307,
    "population": 11193729,
    "name_ko": "South Sudan",
    "name_en": "South Sudan"
  },
  {
    "uid": "724",
    "iso2": "ES",
    "iso3": "ESP",
    "code3": "724",
    "region": "Europe",
    "country_region": "Spain",
    "lat": 40.463667,
    "lng": -3.74922,
    "population": 46754783,
    "name_ko": "Spain",
    "name_en": "Spain"
  },
  {
    "uid": "144",
    "iso2": "LK",
    "iso3": "LKA",
    "code3": "144",
    "region": "Asia",
    "country_region": "Sri Lanka",
    "lat": 7.873054,
    "lng": 80.771797,
    "population": 21413250,
    "name_ko": "Sri Lanka",
    "name_en": "Sri Lanka"
  },
  {
    "uid": "729",
    "iso2": "SD",
    "iso3": "SDN",
    "code3": "729",
    "region": "Africa",
    "country_region": "Sudan",
    "lat": 12.8628,
    "lng": 30.2176,
    "population": 43849269,
    "name_ko": "Sudan",
    "name_en": "Sudan"
  },
  {
    "uid": "740",
    "iso2": "SR",
    "iso3": "SUR",
    "code3": "740",
    "region": "Americas",
    "country_region": "Suriname",
    "lat": 3.9193,
    "lng": -56.0278,
    "population": 586634,
    "name_ko": "Suriname",
    "name_en": "Suriname"
  },
  {
    "uid": "752",
    "iso2": "SE",
    "iso3": "SWE",
    "code3": "752",
    "region": "Europe",
    "country_region": "Sweden",
    "lat": 60.128161,
    "lng": 18.643501,
    "population": 10099270,
    "name_ko": "Sweden",
    "name_en": "Sweden"
  },
  {
    "uid": "756",
    "iso2": "CH",
    "iso3": "CHE",
    "code3": "756",
    "region": "Europe",
    "country_region": "Switzerland",
    "lat": 46.8182,
    "lng": 8.2275,
    "population": 8654618,
    "name_ko": "Switzerland",
    "name_en": "Switzerland"
  },
  {
    "uid": "760",
    "iso2": "SY",
    "iso3": "SYR",
    "code3": "760",
    "region": "Asia",
    "country_region": "Syria",
    "lat": 34.802075,
    "lng": 38.996815,
    "population": 17500657,
    "name_ko": "Syria",
    "name_en": "Syria"
  },
  {
    "uid": "158",
    "iso2": "TW",
    "iso3": "TWN",
    "code3": "158",
    "region": "Asia",
    "country_region": "Taiwan*",
    "lat": 23.7,
    "lng": 121,
    "population": 23816775,
    "name_ko": "Taiwan*",
    "name_en": "Taiwan*"
  },
  {
    "uid": "834",
    "iso2": "TZ",
    "iso3": "TZA",
    "code3": "834",
    "region": "Africa",
    "country_region": "Tanzania",
    "lat": -6.369028,
    "lng": 34.888822,
    "population": 59734213,
    "name_ko": "Tanzania",
    "name_en": "Tanzania"
  },
  {
    "uid": "764",
    "iso2": "TH",
    "iso3": "THA",
    "code3": "764",
    "region": "Asia",
    "country_region": "Thailand",
    "lat": 15.870032,
    "lng": 100.992541,
    "population": 69799978,
    "name_ko": "Thailand",
    "name_en": "Thailand"
  },
  {
    "uid": "626",
    "iso2": "TL",
    "iso3": "TLS",
    "code3": "626",
    "region": "Asia",
    "country_region": "Timor-Leste",
    "lat": -8.874217,
    "lng": 125.727539,
    "population": 1318442,
    "name_ko": "Timor-Leste",
    "name_en": "Timor-Leste"
  },
  {
    "uid": "768",
    "iso2": "TG",
    "iso3": "TGO",
    "code3": "768",
    "region": "Africa",
    "country_region": "Togo",
    "lat": 8.6195,
    "lng": 0.8248,
    "population": 8278737,
    "name_ko": "Togo",
    "name_en": "Togo"
  },
  {
    "uid": "780",
    "iso2": "TT",
    "iso3": "TTO",
    "code3": "780",
    "region": "Americas",
    "country_region": "Trinidad and Tobago",
    "lat": 10.6918,
    "lng": -61.2225,
    "population": 1399491,
    "name_ko": "Trinidad and Tobago",
    "name_en": "Trinidad and Tobago"
  },
  {
    "uid": "788",
    "iso2": "TN",
    "iso3": "TUN",
    "code3": "788",
    "region": "Africa",
    "country_region": "Tunisia",
    "lat": 33.886917,
    "lng": 9.537499,
    "population": 11818618,
    "name_ko": "Tunisia",
    "name_en": "Tunisia"
  },
  {
    "uid": "792",
    "iso2": "TR",
    "iso3": "TUR",
    "code3": "792",
    "region": "Asia",
    "country_region": "Turkey",
    "lat": 38.9637,
    "lng": 35.2433,
    "population": 84339067,
    "name_ko": "Turkey",
    "name_en": "Turkey"
  },
  {
    "uid": "800",
    "iso2": "UG",
    "iso3": "UGA",
    "code3": "800",
    "region": "Africa",
    "country_region": "Uganda",
    "lat": 1.373333,
    "lng": 32.290275,
    "population": 45741000,
    "name_ko": "Uganda",
    "name_en": "Uganda"
  },
  {
    "uid": "804",
    "iso2": "UA",
    "iso3": "UKR",
    "code3": "804",
    "region": "Europe",
    "country_region": "Ukraine",
    "lat": 48.3794,
    "lng": 31.1656,
    "population": 43733759,
    "name_ko": "Ukraine",
    "name_en": "Ukraine"
  },
  {
    "uid": "784",
    "iso2": "AE",
    "iso3": "ARE",
    "code3": "784",
    "region": "Asia",
    "country_region": "United Arab Emirates",
    "lat": 23.424076,
    "lng": 53.847818,
    "population": 9890400,
    "name_ko": "United Arab Emirates",
    "name_en": "United Arab Emirates"
  },
  {
    "uid": "826",
    "iso2": "GB",
    "iso3": "GBR",
    "code3": "826",
    "region": "Europe",
    "country_region": "United Kingdom",
    "lat": 55.3781,
    "lng": -3.436,
    "population": 67886004,
    "name_ko": "United Kingdom",
    "name_en": "United Kingdom"
  },
  {
    "uid": "858",
    "iso2": "UY",
    "iso3": "URY",
    "code3": "858",
    "region": "Americas",
    "country_region": "Uruguay",
    "lat": -32.5228,
    "lng": -55.7658,
    "population": 3473727,
    "name_ko": "Uruguay",
    "name_en": "Uruguay"
  },
  {
    "uid": "860",
    "iso2": "UZ",
    "iso3": "UZB",
    "code3": "860",
    "region": "Asia",
    "country_region": "Uzbekistan",
    "lat": 41.377491,
    "lng": 64.585262,
    "population": 33469199,
    "name_ko": "Uzbekistan",
    "name_en": "Uzbekistan"
  },
  {
    "uid": "862",
    "iso2": "VE",
    "iso3": "VEN",
    "code3": "862",
    "region": "Americas",
    "country_region": "Venezuela",
    "lat": 6.4238,
    "lng": -66.5897,
    "population": 28435943,
    "name_ko": "Venezuela",
    "name_en": "Venezuela"
  },
  {
    "uid": "704",
    "iso2": "VN",
    "iso3": "VNM",
    "code3": "704",
    "region": "Asia",
    "country_region": "Vietnam",
    "lat": 14.058324,
    "lng": 108.277199,
    "population": 97338583,
    "name_ko": "Vietnam",
    "name_en": "Vietnam"
  },
  {
    "uid": "275",
    "iso2": "PS",
    "iso3": "PSE",
    "code3": "275",
    "region": "Asia",
    "country_region": "West Bank and Gaza",
    "lat": 31.9522,
    "lng": 35.2332,
    "population": 5101416,
    "name_ko": "West Bank and Gaza",
    "name_en": "West Bank and Gaza"
  },
  {
    "uid": "732",
    "iso2": "EH",
    "iso3": "ESH",
    "code3": "732",
    "region": "Africa",
    "country_region": "Western Sahara",
    "lat": 24.2155,
    "lng": -12.8858,
    "population": 597330,
    "name_ko": "Western Sahara",
    "name_en": "Western Sahara"
  },
  {
    "uid": "887",
    "iso2": "YE",
    "iso3": "YEM",
    "code3": "887",
    "region": "Asia",
    "country_region": "Yemen",
    "lat": 15.552727,
    "lng": 48.516388,
    "population": 29825968,
    "name_ko": "Yemen",
    "name_en": "Yemen"
  },
  {
    "uid": "894",
    "iso2": "ZM",
    "iso3": "ZMB",
    "code3": "894",
    "region": "Africa",
    "country_region": "Zambia",
    "lat": -13.133897,
    "lng": 27.849332,
    "population": 18383956,
    "name_ko": "Zambia",
    "name_en": "Zambia"
  },
  {
    "uid": "716",
    "iso2": "ZW",
    "iso3": "ZWE",
    "code3": "716",
    "region": "Africa",
    "country_region": "Zimbabwe",
    "lat": -19.015438,
    "lng": 29.154857,
    "population": 14862927,
    "name_ko": "Zimbabwe",
    "name_en": "Zimbabwe"
  },
  {
    "uid": "36",
    "iso2": "AU",
    "iso3": "AUS",
    "code3": "36",
    "region": "Oceania",
    "country_region": "Australia",
    "lat": -25,
    "lng": 133,
    "population": 25459700,
    "name_ko": "Australia",
    "name_en": "Australia"
  },
  {
    "uid": "124",
    "iso2": "CA",
    "iso3": "CAN",
    "code3": "124",
    "region": "Americas",
    "country_region": "Canada",
    "lat": 60,
    "lng": -95,
    "population": 37855702,
    "name_ko": "Canada",
    "name_en": "Canada"
  },
  {
    "uid": "156",
    "iso2": "CN",
    "iso3": "CHN",
    "code3": "156",
    "region": "Asia",
    "country_region": "China",
    "lat": 30.5928,
    "lng": 114.3055,
    "population": 1404676330,
    "name_ko": "China",
    "name_en": "China"
  },
  {
    "uid": "840",
    "iso2": "US",
    "iso3": "USA",
    "code3": "840",
    "region": "Americas",
    "country_region": "US",
    "lat": 40,
    "lng": -100,
    "population": 329466283,
    "name_ko": "US",
    "name_en": "US"
  },
  {
    "uid": "",
    "lat": null,
    "lng": null,
    "population": 0
  }
]
